[
    {
        "name": "北京市",
        "level": "city",
        "adcode": 110100,
        "lng": 116.405285,
        "lat": 39.904989,
        "childrenNum": 16,
        "parent": 110000,
        "次数": 0,
        "排名": 1
    },
    {
        "name": "天津市",
        "level": "city",
        "adcode": 120100,
        "lng": 117.190182,
        "lat": 39.125596,
        "childrenNum": 16,
        "parent": 120000,
        "次数": 0,
        "排名": 1
    },
    {
        "name": "石家庄市",
        "level": "city",
        "adcode": 130100,
        "lng": 114.514976,
        "lat": 38.042007,
        "childrenNum": 22,
        "parent": 130000,
        "次数": 0,
        "排名": 1
    },
    {
        "name": "唐山市",
        "level": "city",
        "adcode": 130200,
        "lng": 118.180149,
        "lat": 39.63068,
        "childrenNum": 14,
        "parent": 130000,
        "次数": 0,
        "排名": 1
    },
    {
        "name": "秦皇岛市",
        "level": "city",
        "adcode": 130300,
        "lng": 119.52022,
        "lat": 39.888243,
        "childrenNum": 7,
        "parent": 130000,
        "次数": 0,
        "排名": 1
    },
    {
        "name": "邯郸市",
        "level": "city",
        "adcode": 130400,
        "lng": 114.53915,
        "lat": 36.625849,
        "childrenNum": 18,
        "parent": 130000,
        "次数": 0,
        "排名": 1
    },
    {
        "name": "邢台市",
        "level": "city",
        "adcode": 130500,
        "lng": 114.49742,
        "lat": 37.060227,
        "childrenNum": 18,
        "parent": 130000,
        "次数": 0,
        "排名": 1
    },
    {
        "name": "保定市",
        "level": "city",
        "adcode": 130600,
        "lng": 115.464523,
        "lat": 38.874476,
        "childrenNum": 24,
        "parent": 130000,
        "次数": 0,
        "排名": 1
    },
    {
        "name": "张家口市",
        "level": "city",
        "adcode": 130700,
        "lng": 114.885895,
        "lat": 40.768931,
        "childrenNum": 16,
        "parent": 130000,
        "次数": 0,
        "排名": 1
    },
    {
        "name": "承德市",
        "level": "city",
        "adcode": 130800,
        "lng": 117.962749,
        "lat": 40.952942,
        "childrenNum": 11,
        "parent": 130000,
        "次数": 0,
        "排名": 1
    },
    {
        "name": "沧州市",
        "level": "city",
        "adcode": 130900,
        "lng": 116.838715,
        "lat": 38.304676,
        "childrenNum": 16,
        "parent": 130000,
        "次数": 0,
        "排名": 1
    },
    {
        "name": "廊坊市",
        "level": "city",
        "adcode": 131000,
        "lng": 116.683546,
        "lat": 39.538304,
        "childrenNum": 10,
        "parent": 130000,
        "次数": 0,
        "排名": 1
    },
    {
        "name": "衡水市",
        "level": "city",
        "adcode": 131100,
        "lng": 115.668987,
        "lat": 37.739367,
        "childrenNum": 11,
        "parent": 130000,
        "次数": 0,
        "排名": 1
    },
    {
        "name": "太原市",
        "level": "city",
        "adcode": 140100,
        "lng": 112.549656,
        "lat": 37.870451,
        "childrenNum": 10,
        "parent": 140000,
        "次数": 0,
        "排名": 1
    },
    {
        "name": "大同市",
        "level": "city",
        "adcode": 140200,
        "lng": 113.366749,
        "lat": 40.09711,
        "childrenNum": 10,
        "parent": 140000,
        "次数": 0,
        "排名": 1
    },
    {
        "name": "阳泉市",
        "level": "city",
        "adcode": 140300,
        "lng": 113.580426,
        "lat": 37.857094,
        "childrenNum": 5,
        "parent": 140000,
        "次数": 0,
        "排名": 1
    },
    {
        "name": "长治市",
        "level": "city",
        "adcode": 140400,
        "lng": 113.117394,
        "lat": 36.195142,
        "childrenNum": 12,
        "parent": 140000,
        "次数": 0,
        "排名": 1
    },
    {
        "name": "晋城市",
        "level": "city",
        "adcode": 140500,
        "lng": 112.852022,
        "lat": 35.491315,
        "childrenNum": 6,
        "parent": 140000,
        "次数": 0,
        "排名": 1
    },
    {
        "name": "朔州市",
        "level": "city",
        "adcode": 140600,
        "lng": 112.432906,
        "lat": 39.331734,
        "childrenNum": 6,
        "parent": 140000,
        "次数": 0,
        "排名": 1
    },
    {
        "name": "晋中市",
        "level": "city",
        "adcode": 140700,
        "lng": 112.752633,
        "lat": 37.688006,
        "childrenNum": 11,
        "parent": 140000,
        "次数": 0,
        "排名": 1
    },
    {
        "name": "运城市",
        "level": "city",
        "adcode": 140800,
        "lng": 111.007051,
        "lat": 35.02667,
        "childrenNum": 13,
        "parent": 140000,
        "次数": 0,
        "排名": 1
    },
    {
        "name": "忻州市",
        "level": "city",
        "adcode": 140900,
        "lng": 112.734149,
        "lat": 38.415958,
        "childrenNum": 14,
        "parent": 140000,
        "次数": 0,
        "排名": 1
    },
    {
        "name": "临汾市",
        "level": "city",
        "adcode": 141000,
        "lng": 111.51931,
        "lat": 36.088581,
        "childrenNum": 17,
        "parent": 140000,
        "次数": 0,
        "排名": 1
    },
    {
        "name": "吕梁市",
        "level": "city",
        "adcode": 141100,
        "lng": 111.14454,
        "lat": 37.518996,
        "childrenNum": 13,
        "parent": 140000,
        "次数": 0,
        "排名": 1
    },
    {
        "name": "呼和浩特市",
        "level": "city",
        "adcode": 150100,
        "lng": 111.748814,
        "lat": 40.842127,
        "childrenNum": 9,
        "parent": 150000,
        "次数": 0,
        "排名": 1
    },
    {
        "name": "包头市",
        "level": "city",
        "adcode": 150200,
        "lng": 109.95315,
        "lat": 40.621327,
        "childrenNum": 9,
        "parent": 150000,
        "次数": 0,
        "排名": 1
    },
    {
        "name": "乌海市",
        "level": "city",
        "adcode": 150300,
        "lng": 106.79415,
        "lat": 39.655048,
        "childrenNum": 3,
        "parent": 150000,
        "次数": 0,
        "排名": 1
    },
    {
        "name": "赤峰市",
        "level": "city",
        "adcode": 150400,
        "lng": 118.887613,
        "lat": 42.256876,
        "childrenNum": 12,
        "parent": 150000,
        "次数": 0,
        "排名": 1
    },
    {
        "name": "通辽市",
        "level": "city",
        "adcode": 150500,
        "lng": 122.243309,
        "lat": 43.653566,
        "childrenNum": 8,
        "parent": 150000,
        "次数": 0,
        "排名": 1
    },
    {
        "name": "鄂尔多斯市",
        "level": "city",
        "adcode": 150600,
        "lng": 109.782473,
        "lat": 39.608744,
        "childrenNum": 9,
        "parent": 150000,
        "次数": 0,
        "排名": 1
    },
    {
        "name": "呼伦贝尔市",
        "level": "city",
        "adcode": 150700,
        "lng": 119.77845,
        "lat": 49.166536,
        "childrenNum": 14,
        "parent": 150000,
        "次数": 0,
        "排名": 1
    },
    {
        "name": "巴彦淖尔市",
        "level": "city",
        "adcode": 150800,
        "lng": 107.387767,
        "lat": 40.742987,
        "childrenNum": 7,
        "parent": 150000,
        "次数": 0,
        "排名": 1
    },
    {
        "name": "乌兰察布市",
        "level": "city",
        "adcode": 150900,
        "lng": 113.132227,
        "lat": 40.994526,
        "childrenNum": 11,
        "parent": 150000,
        "次数": 0,
        "排名": 1
    },
    {
        "name": "兴安盟",
        "level": "city",
        "adcode": 152200,
        "lng": 122.037796,
        "lat": 46.082373,
        "childrenNum": 6,
        "parent": 150000,
        "次数": 0,
        "排名": 1
    },
    {
        "name": "锡林郭勒盟",
        "level": "city",
        "adcode": 152500,
        "lng": 116.047387,
        "lat": 43.933212,
        "childrenNum": 12,
        "parent": 150000,
        "次数": 0,
        "排名": 1
    },
    {
        "name": "阿拉善盟",
        "level": "city",
        "adcode": 152900,
        "lng": 105.729135,
        "lat": 38.851554,
        "childrenNum": 3,
        "parent": 150000,
        "次数": 0,
        "排名": 1
    },
    {
        "name": "沈阳市",
        "level": "city",
        "adcode": 210100,
        "lng": 123.464675,
        "lat": 41.677576,
        "childrenNum": 13,
        "parent": 210000,
        "次数": 0,
        "排名": 1
    },
    {
        "name": "大连市",
        "level": "city",
        "adcode": 210200,
        "lng": 121.614786,
        "lat": 38.913962,
        "childrenNum": 10,
        "parent": 210000,
        "次数": 0,
        "排名": 1
    },
    {
        "name": "鞍山市",
        "level": "city",
        "adcode": 210300,
        "lng": 122.994183,
        "lat": 41.108239,
        "childrenNum": 7,
        "parent": 210000,
        "次数": 0,
        "排名": 1
    },
    {
        "name": "抚顺市",
        "level": "city",
        "adcode": 210400,
        "lng": 123.957053,
        "lat": 41.881311,
        "childrenNum": 7,
        "parent": 210000,
        "次数": 0,
        "排名": 1
    },
    {
        "name": "本溪市",
        "level": "city",
        "adcode": 210500,
        "lng": 123.684984,
        "lat": 41.486834,
        "childrenNum": 6,
        "parent": 210000,
        "次数": 0,
        "排名": 1
    },
    {
        "name": "丹东市",
        "level": "city",
        "adcode": 210600,
        "lng": 124.354419,
        "lat": 40.000646,
        "childrenNum": 6,
        "parent": 210000,
        "次数": 0,
        "排名": 1
    },
    {
        "name": "锦州市",
        "level": "city",
        "adcode": 210700,
        "lng": 121.126859,
        "lat": 41.096114,
        "childrenNum": 7,
        "parent": 210000,
        "次数": 0,
        "排名": 1
    },
    {
        "name": "营口市",
        "level": "city",
        "adcode": 210800,
        "lng": 122.219148,
        "lat": 40.625027,
        "childrenNum": 6,
        "parent": 210000,
        "次数": 0,
        "排名": 1
    },
    {
        "name": "阜新市",
        "level": "city",
        "adcode": 210900,
        "lng": 121.670052,
        "lat": 42.022028,
        "childrenNum": 7,
        "parent": 210000,
        "次数": 0,
        "排名": 1
    },
    {
        "name": "辽阳市",
        "level": "city",
        "adcode": 211000,
        "lng": 123.239669,
        "lat": 41.267396,
        "childrenNum": 7,
        "parent": 210000,
        "次数": 0,
        "排名": 1
    },
    {
        "name": "盘锦市",
        "level": "city",
        "adcode": 211100,
        "lng": 122.170729,
        "lat": 40.71956,
        "childrenNum": 4,
        "parent": 210000,
        "次数": 0,
        "排名": 1
    },
    {
        "name": "铁岭市",
        "level": "city",
        "adcode": 211200,
        "lng": 123.726008,
        "lat": 42.223709,
        "childrenNum": 7,
        "parent": 210000,
        "次数": 0,
        "排名": 1
    },
    {
        "name": "朝阳市",
        "level": "city",
        "adcode": 211300,
        "lng": 120.488801,
        "lat": 41.601855,
        "childrenNum": 7,
        "parent": 210000,
        "次数": 0,
        "排名": 1
    },
    {
        "name": "葫芦岛市",
        "level": "city",
        "adcode": 211400,
        "lng": 120.836783,
        "lat": 40.710974,
        "childrenNum": 6,
        "parent": 210000,
        "次数": 0,
        "排名": 1
    },
    {
        "name": "长春市",
        "level": "city",
        "adcode": 220100,
        "lng": 125.323643,
        "lat": 43.816996,
        "childrenNum": 11,
        "parent": 220000,
        "次数": 0,
        "排名": 1
    },
    {
        "name": "吉林市",
        "level": "city",
        "adcode": 220200,
        "lng": 126.549719,
        "lat": 43.838132,
        "childrenNum": 9,
        "parent": 220000,
        "次数": 0,
        "排名": 1
    },
    {
        "name": "四平市",
        "level": "city",
        "adcode": 220300,
        "lng": 124.350599,
        "lat": 43.166764,
        "childrenNum": 5,
        "parent": 220000,
        "次数": 0,
        "排名": 1
    },
    {
        "name": "辽源市",
        "level": "city",
        "adcode": 220400,
        "lng": 125.144676,
        "lat": 42.887961,
        "childrenNum": 4,
        "parent": 220000,
        "次数": 0,
        "排名": 1
    },
    {
        "name": "通化市",
        "level": "city",
        "adcode": 220500,
        "lng": 125.939721,
        "lat": 41.728312,
        "childrenNum": 7,
        "parent": 220000,
        "次数": 0,
        "排名": 1
    },
    {
        "name": "白山市",
        "level": "city",
        "adcode": 220600,
        "lng": 126.414274,
        "lat": 41.944132,
        "childrenNum": 6,
        "parent": 220000,
        "次数": 0,
        "排名": 1
    },
    {
        "name": "松原市",
        "level": "city",
        "adcode": 220700,
        "lng": 124.825321,
        "lat": 45.14191,
        "childrenNum": 5,
        "parent": 220000,
        "次数": 0,
        "排名": 1
    },
    {
        "name": "白城市",
        "level": "city",
        "adcode": 220800,
        "lng": 122.838102,
        "lat": 45.620131,
        "childrenNum": 5,
        "parent": 220000,
        "次数": 0,
        "排名": 1
    },
    {
        "name": "延边朝鲜族自治州",
        "level": "city",
        "adcode": 222400,
        "lng": 129.470605,
        "lat": 42.909426,
        "childrenNum": 8,
        "parent": 220000,
        "次数": 0,
        "排名": 1
    },
    {
        "name": "哈尔滨市",
        "level": "city",
        "adcode": 230100,
        "lng": 126.53505,
        "lat": 45.802981,
        "childrenNum": 18,
        "parent": 230000,
        "次数": 0,
        "排名": 1
    },
    {
        "name": "齐齐哈尔市",
        "level": "city",
        "adcode": 230200,
        "lng": 123.918193,
        "lat": 47.354892,
        "childrenNum": 16,
        "parent": 230000,
        "次数": 0,
        "排名": 1
    },
    {
        "name": "鸡西市",
        "level": "city",
        "adcode": 230300,
        "lng": 130.969385,
        "lat": 45.295087,
        "childrenNum": 9,
        "parent": 230000,
        "次数": 0,
        "排名": 1
    },
    {
        "name": "鹤岗市",
        "level": "city",
        "adcode": 230400,
        "lng": 130.297687,
        "lat": 47.350659,
        "childrenNum": 8,
        "parent": 230000,
        "次数": 0,
        "排名": 1
    },
    {
        "name": "双鸭山市",
        "level": "city",
        "adcode": 230500,
        "lng": 131.141563,
        "lat": 46.676157,
        "childrenNum": 8,
        "parent": 230000,
        "次数": 0,
        "排名": 1
    },
    {
        "name": "大庆市",
        "level": "city",
        "adcode": 230600,
        "lng": 125.104078,
        "lat": 46.589498,
        "childrenNum": 9,
        "parent": 230000,
        "次数": 0,
        "排名": 1
    },
    {
        "name": "伊春市",
        "level": "city",
        "adcode": 230700,
        "lng": 128.840863,
        "lat": 47.728332,
        "childrenNum": 10,
        "parent": 230000,
        "次数": 0,
        "排名": 1
    },
    {
        "name": "佳木斯市",
        "level": "city",
        "adcode": 230800,
        "lng": 130.318916,
        "lat": 46.800002,
        "childrenNum": 10,
        "parent": 230000,
        "次数": 0,
        "排名": 1
    },
    {
        "name": "七台河市",
        "level": "city",
        "adcode": 230900,
        "lng": 131.003015,
        "lat": 45.771178,
        "childrenNum": 4,
        "parent": 230000,
        "次数": 0,
        "排名": 1
    },
    {
        "name": "牡丹江市",
        "level": "city",
        "adcode": 231000,
        "lng": 129.632928,
        "lat": 44.551486,
        "childrenNum": 10,
        "parent": 230000,
        "次数": 0,
        "排名": 1
    },
    {
        "name": "黑河市",
        "level": "city",
        "adcode": 231100,
        "lng": 127.528226,
        "lat": 50.244887,
        "childrenNum": 6,
        "parent": 230000,
        "次数": 0,
        "排名": 1
    },
    {
        "name": "绥化市",
        "level": "city",
        "adcode": 231200,
        "lng": 126.968714,
        "lat": 46.654147,
        "childrenNum": 10,
        "parent": 230000,
        "次数": 0,
        "排名": 1
    },
    {
        "name": "大兴安岭地区",
        "level": "city",
        "adcode": 232700,
        "lng": 124.117806,
        "lat": 50.411048,
        "childrenNum": 4,
        "parent": 230000,
        "次数": 0,
        "排名": 1
    },
    {
        "name": "上海市",
        "level": "city",
        "adcode": 310100,
        "lng": 121.472644,
        "lat": 31.231706,
        "childrenNum": 16,
        "parent": 310000,
        "次数": 0,
        "排名": 1
    },
    {
        "name": "南京市",
        "level": "city",
        "adcode": 320100,
        "lng": 118.796624,
        "lat": 32.059344,
        "childrenNum": 11,
        "parent": 320000,
        "次数": 0,
        "排名": 1
    },
    {
        "name": "无锡市",
        "level": "city",
        "adcode": 320200,
        "lng": 120.311889,
        "lat": 31.491064,
        "childrenNum": 7,
        "parent": 320000,
        "次数": 0,
        "排名": 1
    },
    {
        "name": "徐州市",
        "level": "city",
        "adcode": 320300,
        "lng": 117.283752,
        "lat": 34.204224,
        "childrenNum": 10,
        "parent": 320000,
        "次数": 0,
        "排名": 1
    },
    {
        "name": "常州市",
        "level": "city",
        "adcode": 320400,
        "lng": 119.974092,
        "lat": 31.811313,
        "childrenNum": 6,
        "parent": 320000,
        "次数": 0,
        "排名": 1
    },
    {
        "name": "苏州市",
        "level": "city",
        "adcode": 320500,
        "lng": 120.585294,
        "lat": 31.299758,
        "childrenNum": 9,
        "parent": 320000,
        "次数": 0,
        "排名": 1
    },
    {
        "name": "南通市",
        "level": "city",
        "adcode": 320600,
        "lng": 120.894522,
        "lat": 31.981269,
        "childrenNum": 7,
        "parent": 320000,
        "次数": 0,
        "排名": 1
    },
    {
        "name": "连云港市",
        "level": "city",
        "adcode": 320700,
        "lng": 119.221487,
        "lat": 34.596639,
        "childrenNum": 6,
        "parent": 320000,
        "次数": 0,
        "排名": 1
    },
    {
        "name": "淮安市",
        "level": "city",
        "adcode": 320800,
        "lng": 119.113166,
        "lat": 33.551495,
        "childrenNum": 7,
        "parent": 320000,
        "次数": 0,
        "排名": 1
    },
    {
        "name": "盐城市",
        "level": "city",
        "adcode": 320900,
        "lng": 120.16263,
        "lat": 33.348176,
        "childrenNum": 9,
        "parent": 320000,
        "次数": 0,
        "排名": 1
    },
    {
        "name": "扬州市",
        "level": "city",
        "adcode": 321000,
        "lng": 119.412834,
        "lat": 32.394404,
        "childrenNum": 6,
        "parent": 320000,
        "次数": 0,
        "排名": 1
    },
    {
        "name": "镇江市",
        "level": "city",
        "adcode": 321100,
        "lng": 119.424441,
        "lat": 32.188141,
        "childrenNum": 6,
        "parent": 320000,
        "次数": 0,
        "排名": 1
    },
    {
        "name": "泰州市",
        "level": "city",
        "adcode": 321200,
        "lng": 119.922883,
        "lat": 32.456692,
        "childrenNum": 6,
        "parent": 320000,
        "次数": 0,
        "排名": 1
    },
    {
        "name": "宿迁市",
        "level": "city",
        "adcode": 321300,
        "lng": 118.275228,
        "lat": 33.963186,
        "childrenNum": 5,
        "parent": 320000,
        "次数": 0,
        "排名": 1
    },
    {
        "name": "杭州市",
        "level": "city",
        "adcode": 330100,
        "lng": 120.210792,
        "lat": 30.246026,
        "childrenNum": 13,
        "parent": 330000,
        "次数": 0,
        "排名": 1
    },
    {
        "name": "宁波市",
        "level": "city",
        "adcode": 330200,
        "lng": 121.62454,
        "lat": 29.860258,
        "childrenNum": 10,
        "parent": 330000,
        "次数": 0,
        "排名": 1
    },
    {
        "name": "温州市",
        "level": "city",
        "adcode": 330300,
        "lng": 120.699279,
        "lat": 27.993849,
        "childrenNum": 12,
        "parent": 330000,
        "次数": 0,
        "排名": 1
    },
    {
        "name": "嘉兴市",
        "level": "city",
        "adcode": 330400,
        "lng": 120.755623,
        "lat": 30.746814,
        "childrenNum": 7,
        "parent": 330000,
        "次数": 0,
        "排名": 1
    },
    {
        "name": "湖州市",
        "level": "city",
        "adcode": 330500,
        "lng": 120.086881,
        "lat": 30.894178,
        "childrenNum": 5,
        "parent": 330000,
        "次数": 0,
        "排名": 1
    },
    {
        "name": "绍兴市",
        "level": "city",
        "adcode": 330600,
        "lng": 120.582886,
        "lat": 30.051549,
        "childrenNum": 6,
        "parent": 330000,
        "次数": 0,
        "排名": 1
    },
    {
        "name": "金华市",
        "level": "city",
        "adcode": 330700,
        "lng": 119.647265,
        "lat": 29.079195,
        "childrenNum": 9,
        "parent": 330000,
        "次数": 0,
        "排名": 1
    },
    {
        "name": "衢州市",
        "level": "city",
        "adcode": 330800,
        "lng": 118.859307,
        "lat": 28.970229,
        "childrenNum": 6,
        "parent": 330000,
        "次数": 0,
        "排名": 1
    },
    {
        "name": "舟山市",
        "level": "city",
        "adcode": 330900,
        "lng": 122.207395,
        "lat": 29.985578,
        "childrenNum": 4,
        "parent": 330000,
        "次数": 0,
        "排名": 1
    },
    {
        "name": "台州市",
        "level": "city",
        "adcode": 331000,
        "lng": 121.42079,
        "lat": 28.655716,
        "childrenNum": 9,
        "parent": 330000,
        "次数": 0,
        "排名": 1
    },
    {
        "name": "丽水市",
        "level": "city",
        "adcode": 331100,
        "lng": 119.923249,
        "lat": 28.467694,
        "childrenNum": 9,
        "parent": 330000,
        "次数": 0,
        "排名": 1
    },
    {
        "name": "合肥市",
        "level": "city",
        "adcode": 340100,
        "lng": 117.227267,
        "lat": 31.820567,
        "childrenNum": 9,
        "parent": 340000,
        "次数": 0,
        "排名": 1
    },
    {
        "name": "芜湖市",
        "level": "city",
        "adcode": 340200,
        "lng": 118.433065,
        "lat": 31.352614,
        "childrenNum": 7,
        "parent": 340000,
        "次数": 0,
        "排名": 1
    },
    {
        "name": "蚌埠市",
        "level": "city",
        "adcode": 340300,
        "lng": 117.388566,
        "lat": 32.91682,
        "childrenNum": 7,
        "parent": 340000,
        "次数": 0,
        "排名": 1
    },
    {
        "name": "淮南市",
        "level": "city",
        "adcode": 340400,
        "lng": 117.018603,
        "lat": 32.585384,
        "childrenNum": 7,
        "parent": 340000,
        "次数": 0,
        "排名": 1
    },
    {
        "name": "马鞍山市",
        "level": "city",
        "adcode": 340500,
        "lng": 118.50685,
        "lat": 31.668765,
        "childrenNum": 6,
        "parent": 340000,
        "次数": 0,
        "排名": 1
    },
    {
        "name": "淮北市",
        "level": "city",
        "adcode": 340600,
        "lng": 116.798362,
        "lat": 33.956264,
        "childrenNum": 4,
        "parent": 340000,
        "次数": 0,
        "排名": 1
    },
    {
        "name": "铜陵市",
        "level": "city",
        "adcode": 340700,
        "lng": 117.811298,
        "lat": 30.945214,
        "childrenNum": 4,
        "parent": 340000,
        "次数": 0,
        "排名": 1
    },
    {
        "name": "安庆市",
        "level": "city",
        "adcode": 340800,
        "lng": 117.115349,
        "lat": 30.531828,
        "childrenNum": 10,
        "parent": 340000,
        "次数": 0,
        "排名": 1
    },
    {
        "name": "黄山市",
        "level": "city",
        "adcode": 341000,
        "lng": 118.337643,
        "lat": 29.714886,
        "childrenNum": 7,
        "parent": 340000,
        "次数": 0,
        "排名": 1
    },
    {
        "name": "滁州市",
        "level": "city",
        "adcode": 341100,
        "lng": 118.333439,
        "lat": 32.255904,
        "childrenNum": 8,
        "parent": 340000,
        "次数": 0,
        "排名": 1
    },
    {
        "name": "阜阳市",
        "level": "city",
        "adcode": 341200,
        "lng": 115.814252,
        "lat": 32.891032,
        "childrenNum": 8,
        "parent": 340000,
        "次数": 0,
        "排名": 1
    },
    {
        "name": "宿州市",
        "level": "city",
        "adcode": 341300,
        "lng": 116.96419,
        "lat": 33.647726,
        "childrenNum": 5,
        "parent": 340000,
        "次数": 0,
        "排名": 1
    },
    {
        "name": "六安市",
        "level": "city",
        "adcode": 341500,
        "lng": 116.519729,
        "lat": 31.735892,
        "childrenNum": 7,
        "parent": 340000,
        "次数": 0,
        "排名": 1
    },
    {
        "name": "亳州市",
        "level": "city",
        "adcode": 341600,
        "lng": 115.778588,
        "lat": 33.846285,
        "childrenNum": 4,
        "parent": 340000,
        "次数": 0,
        "排名": 1
    },
    {
        "name": "池州市",
        "level": "city",
        "adcode": 341700,
        "lng": 117.495663,
        "lat": 30.674264,
        "childrenNum": 4,
        "parent": 340000,
        "次数": 0,
        "排名": 1
    },
    {
        "name": "宣城市",
        "level": "city",
        "adcode": 341800,
        "lng": 118.759127,
        "lat": 30.939278,
        "childrenNum": 7,
        "parent": 340000,
        "次数": 0,
        "排名": 1
    },
    {
        "name": "福州市",
        "level": "city",
        "adcode": 350100,
        "lng": 119.296411,
        "lat": 26.074286,
        "childrenNum": 13,
        "parent": 350000,
        "次数": 0,
        "排名": 1
    },
    {
        "name": "厦门市",
        "level": "city",
        "adcode": 350200,
        "lng": 118.08891,
        "lat": 24.479627,
        "childrenNum": 6,
        "parent": 350000,
        "次数": 0,
        "排名": 1
    },
    {
        "name": "莆田市",
        "level": "city",
        "adcode": 350300,
        "lng": 119.007662,
        "lat": 25.454202,
        "childrenNum": 5,
        "parent": 350000,
        "次数": 0,
        "排名": 1
    },
    {
        "name": "三明市",
        "level": "city",
        "adcode": 350400,
        "lng": 117.638919,
        "lat": 26.263455,
        "childrenNum": 11,
        "parent": 350000,
        "次数": 0,
        "排名": 1
    },
    {
        "name": "泉州市",
        "level": "city",
        "adcode": 350500,
        "lng": 118.675724,
        "lat": 24.874452,
        "childrenNum": 12,
        "parent": 350000,
        "次数": 0,
        "排名": 1
    },
    {
        "name": "漳州市",
        "level": "city",
        "adcode": 350600,
        "lng": 117.647298,
        "lat": 24.515297,
        "childrenNum": 11,
        "parent": 350000,
        "次数": 0,
        "排名": 1
    },
    {
        "name": "南平市",
        "level": "city",
        "adcode": 350700,
        "lng": 118.081325,
        "lat": 27.382829,
        "childrenNum": 10,
        "parent": 350000,
        "次数": 0,
        "排名": 1
    },
    {
        "name": "龙岩市",
        "level": "city",
        "adcode": 350800,
        "lng": 117.017362,
        "lat": 25.075884,
        "childrenNum": 7,
        "parent": 350000,
        "次数": 0,
        "排名": 1
    },
    {
        "name": "宁德市",
        "level": "city",
        "adcode": 350900,
        "lng": 119.547729,
        "lat": 26.666222,
        "childrenNum": 9,
        "parent": 350000,
        "次数": 0,
        "排名": 1
    },
    {
        "name": "南昌市",
        "level": "city",
        "adcode": 360100,
        "lng": 115.857972,
        "lat": 28.682976,
        "childrenNum": 9,
        "parent": 360000,
        "次数": 0,
        "排名": 1
    },
    {
        "name": "景德镇市",
        "level": "city",
        "adcode": 360200,
        "lng": 117.184892,
        "lat": 29.2744,
        "childrenNum": 4,
        "parent": 360000,
        "次数": 0,
        "排名": 1
    },
    {
        "name": "萍乡市",
        "level": "city",
        "adcode": 360300,
        "lng": 113.887147,
        "lat": 27.658721,
        "childrenNum": 5,
        "parent": 360000,
        "次数": 0,
        "排名": 1
    },
    {
        "name": "九江市",
        "level": "city",
        "adcode": 360400,
        "lng": 115.95356,
        "lat": 29.66116,
        "childrenNum": 13,
        "parent": 360000,
        "次数": 0,
        "排名": 1
    },
    {
        "name": "新余市",
        "level": "city",
        "adcode": 360500,
        "lng": 114.916665,
        "lat": 27.818553,
        "childrenNum": 2,
        "parent": 360000,
        "次数": 0,
        "排名": 1
    },
    {
        "name": "鹰潭市",
        "level": "city",
        "adcode": 360600,
        "lng": 117.039532,
        "lat": 28.272092,
        "childrenNum": 3,
        "parent": 360000,
        "次数": 0,
        "排名": 1
    },
    {
        "name": "赣州市",
        "level": "city",
        "adcode": 360700,
        "lng": 114.933494,
        "lat": 25.831139,
        "childrenNum": 18,
        "parent": 360000,
        "次数": 0,
        "排名": 1
    },
    {
        "name": "吉安市",
        "level": "city",
        "adcode": 360800,
        "lng": 114.96681,
        "lat": 27.091243,
        "childrenNum": 13,
        "parent": 360000,
        "次数": 0,
        "排名": 1
    },
    {
        "name": "宜春市",
        "level": "city",
        "adcode": 360900,
        "lng": 114.416826,
        "lat": 27.816245,
        "childrenNum": 10,
        "parent": 360000,
        "次数": 0,
        "排名": 1
    },
    {
        "name": "抚州市",
        "level": "city",
        "adcode": 361000,
        "lng": 116.358054,
        "lat": 27.948979,
        "childrenNum": 11,
        "parent": 360000,
        "次数": 0,
        "排名": 1
    },
    {
        "name": "上饶市",
        "level": "city",
        "adcode": 361100,
        "lng": 117.943064,
        "lat": 28.45513,
        "childrenNum": 12,
        "parent": 360000,
        "次数": 0,
        "排名": 1
    },
    {
        "name": "济南市",
        "level": "city",
        "adcode": 370100,
        "lng": 117.120128,
        "lat": 36.652069,
        "childrenNum": 12,
        "parent": 370000,
        "次数": 0,
        "排名": 1
    },
    {
        "name": "青岛市",
        "level": "city",
        "adcode": 370200,
        "lng": 120.382665,
        "lat": 36.066938,
        "childrenNum": 10,
        "parent": 370000,
        "次数": 0,
        "排名": 1
    },
    {
        "name": "淄博市",
        "level": "city",
        "adcode": 370300,
        "lng": 118.054994,
        "lat": 36.813787,
        "childrenNum": 8,
        "parent": 370000,
        "次数": 0,
        "排名": 1
    },
    {
        "name": "枣庄市",
        "level": "city",
        "adcode": 370400,
        "lng": 117.323759,
        "lat": 34.810858,
        "childrenNum": 6,
        "parent": 370000,
        "次数": 0,
        "排名": 1
    },
    {
        "name": "东营市",
        "level": "city",
        "adcode": 370500,
        "lng": 118.674633,
        "lat": 37.433992,
        "childrenNum": 5,
        "parent": 370000,
        "次数": 0,
        "排名": 1
    },
    {
        "name": "烟台市",
        "level": "city",
        "adcode": 370600,
        "lng": 121.447755,
        "lat": 37.464551,
        "childrenNum": 11,
        "parent": 370000,
        "次数": 0,
        "排名": 1
    },
    {
        "name": "潍坊市",
        "level": "city",
        "adcode": 370700,
        "lng": 119.161721,
        "lat": 36.707668,
        "childrenNum": 12,
        "parent": 370000,
        "次数": 0,
        "排名": 1
    },
    {
        "name": "济宁市",
        "level": "city",
        "adcode": 370800,
        "lng": 116.587116,
        "lat": 35.415117,
        "childrenNum": 11,
        "parent": 370000,
        "次数": 0,
        "排名": 1
    },
    {
        "name": "泰安市",
        "level": "city",
        "adcode": 370900,
        "lng": 117.086963,
        "lat": 36.201784,
        "childrenNum": 6,
        "parent": 370000,
        "次数": 0,
        "排名": 1
    },
    {
        "name": "威海市",
        "level": "city",
        "adcode": 371000,
        "lng": 122.120519,
        "lat": 37.513315,
        "childrenNum": 4,
        "parent": 370000,
        "次数": 0,
        "排名": 1
    },
    {
        "name": "日照市",
        "level": "city",
        "adcode": 371100,
        "lng": 119.52685,
        "lat": 35.416912,
        "childrenNum": 4,
        "parent": 370000,
        "次数": 0,
        "排名": 1
    },
    {
        "name": "临沂市",
        "level": "city",
        "adcode": 371300,
        "lng": 118.356464,
        "lat": 35.103771,
        "childrenNum": 12,
        "parent": 370000,
        "次数": 0,
        "排名": 1
    },
    {
        "name": "德州市",
        "level": "city",
        "adcode": 371400,
        "lng": 116.359244,
        "lat": 37.436492,
        "childrenNum": 11,
        "parent": 370000,
        "次数": 0,
        "排名": 1
    },
    {
        "name": "聊城市",
        "level": "city",
        "adcode": 371500,
        "lng": 115.985238,
        "lat": 36.455857,
        "childrenNum": 8,
        "parent": 370000,
        "次数": 0,
        "排名": 1
    },
    {
        "name": "滨州市",
        "level": "city",
        "adcode": 371600,
        "lng": 117.970731,
        "lat": 37.382687,
        "childrenNum": 7,
        "parent": 370000,
        "次数": 0,
        "排名": 1
    },
    {
        "name": "菏泽市",
        "level": "city",
        "adcode": 371700,
        "lng": 115.479646,
        "lat": 35.234309,
        "childrenNum": 9,
        "parent": 370000,
        "次数": 0,
        "排名": 1
    },
    {
        "name": "郑州市",
        "level": "city",
        "adcode": 410100,
        "lng": 113.625351,
        "lat": 34.746303,
        "childrenNum": 12,
        "parent": 410000,
        "次数": 0,
        "排名": 1
    },
    {
        "name": "开封市",
        "level": "city",
        "adcode": 410200,
        "lng": 114.314278,
        "lat": 34.798083,
        "childrenNum": 9,
        "parent": 410000,
        "次数": 0,
        "排名": 1
    },
    {
        "name": "洛阳市",
        "level": "city",
        "adcode": 410300,
        "lng": 112.453895,
        "lat": 34.619702,
        "childrenNum": 14,
        "parent": 410000,
        "次数": 0,
        "排名": 1
    },
    {
        "name": "平顶山市",
        "level": "city",
        "adcode": 410400,
        "lng": 113.192595,
        "lat": 33.766554,
        "childrenNum": 10,
        "parent": 410000,
        "次数": 0,
        "排名": 1
    },
    {
        "name": "安阳市",
        "level": "city",
        "adcode": 410500,
        "lng": 114.39248,
        "lat": 36.098779,
        "childrenNum": 9,
        "parent": 410000,
        "次数": 0,
        "排名": 1
    },
    {
        "name": "鹤壁市",
        "level": "city",
        "adcode": 410600,
        "lng": 114.297305,
        "lat": 35.748329,
        "childrenNum": 5,
        "parent": 410000,
        "次数": 0,
        "排名": 1
    },
    {
        "name": "新乡市",
        "level": "city",
        "adcode": 410700,
        "lng": 113.92679,
        "lat": 35.303589,
        "childrenNum": 12,
        "parent": 410000,
        "次数": 0,
        "排名": 1
    },
    {
        "name": "焦作市",
        "level": "city",
        "adcode": 410800,
        "lng": 113.241902,
        "lat": 35.215726,
        "childrenNum": 10,
        "parent": 410000,
        "次数": 0,
        "排名": 1
    },
    {
        "name": "濮阳市",
        "level": "city",
        "adcode": 410900,
        "lng": 115.029246,
        "lat": 35.762731,
        "childrenNum": 6,
        "parent": 410000,
        "次数": 0,
        "排名": 1
    },
    {
        "name": "许昌市",
        "level": "city",
        "adcode": 411000,
        "lng": 113.852004,
        "lat": 34.03732,
        "childrenNum": 6,
        "parent": 410000,
        "次数": 0,
        "排名": 1
    },
    {
        "name": "漯河市",
        "level": "city",
        "adcode": 411100,
        "lng": 114.0166,
        "lat": 33.58038,
        "childrenNum": 5,
        "parent": 410000,
        "次数": 0,
        "排名": 1
    },
    {
        "name": "三门峡市",
        "level": "city",
        "adcode": 411200,
        "lng": 111.200482,
        "lat": 34.773196,
        "childrenNum": 6,
        "parent": 410000,
        "次数": 0,
        "排名": 1
    },
    {
        "name": "南阳市",
        "level": "city",
        "adcode": 411300,
        "lng": 112.528549,
        "lat": 32.990218,
        "childrenNum": 13,
        "parent": 410000,
        "次数": 0,
        "排名": 1
    },
    {
        "name": "商丘市",
        "level": "city",
        "adcode": 411400,
        "lng": 115.656358,
        "lat": 34.415165,
        "childrenNum": 9,
        "parent": 410000,
        "次数": 0,
        "排名": 1
    },
    {
        "name": "信阳市",
        "level": "city",
        "adcode": 411500,
        "lng": 114.091058,
        "lat": 32.148624,
        "childrenNum": 10,
        "parent": 410000,
        "次数": 0,
        "排名": 1
    },
    {
        "name": "周口市",
        "level": "city",
        "adcode": 411600,
        "lng": 114.701222,
        "lat": 33.634652,
        "childrenNum": 10,
        "parent": 410000,
        "次数": 0,
        "排名": 1
    },
    {
        "name": "驻马店市",
        "level": "city",
        "adcode": 411700,
        "lng": 114.021988,
        "lat": 33.014038,
        "childrenNum": 10,
        "parent": 410000,
        "次数": 0,
        "排名": 1
    },
    {
        "name": "济源市",
        "level": "city",
        "adcode": 419001,
        "lng": 112.602347,
        "lat": 35.069057,
        "childrenNum": 16,
        "parent": 410000,
        "次数": 0,
        "排名": 1
    },
    {
        "name": "武汉市",
        "level": "city",
        "adcode": 420100,
        "lng": 114.304569,
        "lat": 30.593354,
        "childrenNum": 13,
        "parent": 420000,
        "次数": 0,
        "排名": 1
    },
    {
        "name": "黄石市",
        "level": "city",
        "adcode": 420200,
        "lng": 115.038999,
        "lat": 30.201082,
        "childrenNum": 6,
        "parent": 420000,
        "次数": 0,
        "排名": 1
    },
    {
        "name": "十堰市",
        "level": "city",
        "adcode": 420300,
        "lng": 110.798921,
        "lat": 32.629057,
        "childrenNum": 8,
        "parent": 420000,
        "次数": 0,
        "排名": 1
    },
    {
        "name": "宜昌市",
        "level": "city",
        "adcode": 420500,
        "lng": 111.286962,
        "lat": 30.69217,
        "childrenNum": 13,
        "parent": 420000,
        "次数": 0,
        "排名": 1
    },
    {
        "name": "襄阳市",
        "level": "city",
        "adcode": 420600,
        "lng": 112.121743,
        "lat": 32.010161,
        "childrenNum": 9,
        "parent": 420000,
        "次数": 0,
        "排名": 1
    },
    {
        "name": "鄂州市",
        "level": "city",
        "adcode": 420700,
        "lng": 114.894909,
        "lat": 30.391461,
        "childrenNum": 3,
        "parent": 420000,
        "次数": 0,
        "排名": 1
    },
    {
        "name": "荆门市",
        "level": "city",
        "adcode": 420800,
        "lng": 112.199009,
        "lat": 31.035445,
        "childrenNum": 5,
        "parent": 420000,
        "次数": 0,
        "排名": 1
    },
    {
        "name": "孝感市",
        "level": "city",
        "adcode": 420900,
        "lng": 113.956962,
        "lat": 30.918311,
        "childrenNum": 7,
        "parent": 420000,
        "次数": 0,
        "排名": 1
    },
    {
        "name": "荆州市",
        "level": "city",
        "adcode": 421000,
        "lng": 112.24143,
        "lat": 30.336282,
        "childrenNum": 8,
        "parent": 420000,
        "次数": 0,
        "排名": 1
    },
    {
        "name": "黄冈市",
        "level": "city",
        "adcode": 421100,
        "lng": 114.872425,
        "lat": 30.453722,
        "childrenNum": 10,
        "parent": 420000,
        "次数": 0,
        "排名": 1
    },
    {
        "name": "咸宁市",
        "level": "city",
        "adcode": 421200,
        "lng": 114.322601,
        "lat": 29.84135,
        "childrenNum": 6,
        "parent": 420000,
        "次数": 0,
        "排名": 1
    },
    {
        "name": "随州市",
        "level": "city",
        "adcode": 421300,
        "lng": 113.382324,
        "lat": 31.690275,
        "childrenNum": 3,
        "parent": 420000,
        "次数": 0,
        "排名": 1
    },
    {
        "name": "恩施土家族苗族自治州",
        "level": "city",
        "adcode": 422800,
        "lng": 109.488076,
        "lat": 30.272104,
        "childrenNum": 8,
        "parent": 420000,
        "次数": 0,
        "排名": 1
    },
    {
        "name": "仙桃市",
        "level": "city",
        "adcode": 429004,
        "lng": 113.442973,
        "lat": 30.328407,
        "childrenNum": 25,
        "parent": 420000,
        "次数": 0,
        "排名": 1
    },
    {
        "name": "潜江市",
        "level": "city",
        "adcode": 429005,
        "lng": 112.900279,
        "lat": 30.401954,
        "childrenNum": 25,
        "parent": 420000,
        "次数": 0,
        "排名": 1
    },
    {
        "name": "天门市",
        "level": "city",
        "adcode": 429006,
        "lng": 113.166545,
        "lat": 30.663706,
        "childrenNum": 28,
        "parent": 420000,
        "次数": 0,
        "排名": 1
    },
    {
        "name": "神农架林区",
        "level": "city",
        "adcode": 429021,
        "lng": 110.675879,
        "lat": 31.745103,
        "childrenNum": 8,
        "parent": 420000,
        "次数": 0,
        "排名": 1
    },
    {
        "name": "长沙市",
        "level": "city",
        "adcode": 430100,
        "lng": 112.938882,
        "lat": 28.228304,
        "childrenNum": 9,
        "parent": 430000,
        "次数": 0,
        "排名": 1
    },
    {
        "name": "株洲市",
        "level": "city",
        "adcode": 430200,
        "lng": 113.132783,
        "lat": 27.828862,
        "childrenNum": 9,
        "parent": 430000,
        "次数": 0,
        "排名": 1
    },
    {
        "name": "湘潭市",
        "level": "city",
        "adcode": 430300,
        "lng": 112.945439,
        "lat": 27.83136,
        "childrenNum": 5,
        "parent": 430000,
        "次数": 0,
        "排名": 1
    },
    {
        "name": "衡阳市",
        "level": "city",
        "adcode": 430400,
        "lng": 112.572016,
        "lat": 26.894216,
        "childrenNum": 12,
        "parent": 430000,
        "次数": 0,
        "排名": 1
    },
    {
        "name": "邵阳市",
        "level": "city",
        "adcode": 430500,
        "lng": 111.467855,
        "lat": 27.239528,
        "childrenNum": 12,
        "parent": 430000,
        "次数": 0,
        "排名": 1
    },
    {
        "name": "岳阳市",
        "level": "city",
        "adcode": 430600,
        "lng": 113.128922,
        "lat": 29.35648,
        "childrenNum": 9,
        "parent": 430000,
        "次数": 0,
        "排名": 1
    },
    {
        "name": "常德市",
        "level": "city",
        "adcode": 430700,
        "lng": 111.69905,
        "lat": 29.031446,
        "childrenNum": 9,
        "parent": 430000,
        "次数": 0,
        "排名": 1
    },
    {
        "name": "张家界市",
        "level": "city",
        "adcode": 430800,
        "lng": 110.478887,
        "lat": 29.117343,
        "childrenNum": 4,
        "parent": 430000,
        "次数": 0,
        "排名": 1
    },
    {
        "name": "益阳市",
        "level": "city",
        "adcode": 430900,
        "lng": 112.355994,
        "lat": 28.554853,
        "childrenNum": 6,
        "parent": 430000,
        "次数": 0,
        "排名": 1
    },
    {
        "name": "郴州市",
        "level": "city",
        "adcode": 431000,
        "lng": 113.015517,
        "lat": 25.770117,
        "childrenNum": 11,
        "parent": 430000,
        "次数": 0,
        "排名": 1
    },
    {
        "name": "永州市",
        "level": "city",
        "adcode": 431100,
        "lng": 111.613482,
        "lat": 26.419861,
        "childrenNum": 11,
        "parent": 430000,
        "次数": 0,
        "排名": 1
    },
    {
        "name": "怀化市",
        "level": "city",
        "adcode": 431200,
        "lng": 110.001598,
        "lat": 27.569813,
        "childrenNum": 12,
        "parent": 430000,
        "次数": 0,
        "排名": 1
    },
    {
        "name": "娄底市",
        "level": "city",
        "adcode": 431300,
        "lng": 111.994468,
        "lat": 27.699838,
        "childrenNum": 5,
        "parent": 430000,
        "次数": 0,
        "排名": 1
    },
    {
        "name": "湘西土家族苗族自治州",
        "level": "city",
        "adcode": 433100,
        "lng": 109.737428,
        "lat": 28.312592,
        "childrenNum": 8,
        "parent": 430000,
        "次数": 0,
        "排名": 1
    },
    {
        "name": "广州市",
        "level": "city",
        "adcode": 440100,
        "lng": 113.264499,
        "lat": 23.130061,
        "childrenNum": 11,
        "parent": 440000,
        "次数": 0,
        "排名": 1
    },
    {
        "name": "韶关市",
        "level": "city",
        "adcode": 440200,
        "lng": 113.597324,
        "lat": 24.810977,
        "childrenNum": 10,
        "parent": 440000,
        "次数": 0,
        "排名": 1
    },
    {
        "name": "深圳市",
        "level": "city",
        "adcode": 440300,
        "lng": 114.057939,
        "lat": 22.543527,
        "childrenNum": 9,
        "parent": 440000,
        "次数": 0,
        "排名": 1
    },
    {
        "name": "珠海市",
        "level": "city",
        "adcode": 440400,
        "lng": 113.576892,
        "lat": 22.271644,
        "childrenNum": 3,
        "parent": 440000,
        "次数": 0,
        "排名": 1
    },
    {
        "name": "汕头市",
        "level": "city",
        "adcode": 440500,
        "lng": 116.681956,
        "lat": 23.354152,
        "childrenNum": 7,
        "parent": 440000,
        "次数": 0,
        "排名": 1
    },
    {
        "name": "佛山市",
        "level": "city",
        "adcode": 440600,
        "lng": 113.121586,
        "lat": 23.021351,
        "childrenNum": 5,
        "parent": 440000,
        "次数": 0,
        "排名": 1
    },
    {
        "name": "江门市",
        "level": "city",
        "adcode": 440700,
        "lng": 113.081548,
        "lat": 22.578948,
        "childrenNum": 7,
        "parent": 440000,
        "次数": 0,
        "排名": 1
    },
    {
        "name": "湛江市",
        "level": "city",
        "adcode": 440800,
        "lng": 110.357538,
        "lat": 21.270108,
        "childrenNum": 9,
        "parent": 440000,
        "次数": 0,
        "排名": 1
    },
    {
        "name": "茂名市",
        "level": "city",
        "adcode": 440900,
        "lng": 110.925533,
        "lat": 21.662728,
        "childrenNum": 5,
        "parent": 440000,
        "次数": 0,
        "排名": 1
    },
    {
        "name": "肇庆市",
        "level": "city",
        "adcode": 441200,
        "lng": 112.465245,
        "lat": 23.047747,
        "childrenNum": 8,
        "parent": 440000,
        "次数": 0,
        "排名": 1
    },
    {
        "name": "惠州市",
        "level": "city",
        "adcode": 441300,
        "lng": 114.415587,
        "lat": 23.112368,
        "childrenNum": 5,
        "parent": 440000,
        "次数": 0,
        "排名": 1
    },
    {
        "name": "梅州市",
        "level": "city",
        "adcode": 441400,
        "lng": 116.122046,
        "lat": 24.288832,
        "childrenNum": 8,
        "parent": 440000,
        "次数": 0,
        "排名": 1
    },
    {
        "name": "汕尾市",
        "level": "city",
        "adcode": 441500,
        "lng": 115.375557,
        "lat": 22.787204,
        "childrenNum": 4,
        "parent": 440000,
        "次数": 0,
        "排名": 1
    },
    {
        "name": "河源市",
        "level": "city",
        "adcode": 441600,
        "lng": 114.700215,
        "lat": 23.744276,
        "childrenNum": 6,
        "parent": 440000,
        "次数": 0,
        "排名": 1
    },
    {
        "name": "阳江市",
        "level": "city",
        "adcode": 441700,
        "lng": 111.98343,
        "lat": 21.856853,
        "childrenNum": 4,
        "parent": 440000,
        "次数": 0,
        "排名": 1
    },
    {
        "name": "清远市",
        "level": "city",
        "adcode": 441800,
        "lng": 113.056098,
        "lat": 23.682064,
        "childrenNum": 8,
        "parent": 440000,
        "次数": 0,
        "排名": 1
    },
    {
        "name": "东莞市",
        "level": "city",
        "adcode": 441900,
        "lng": 113.751884,
        "lat": 23.021016,
        "childrenNum": 35,
        "parent": 440000,
        "次数": 0,
        "排名": 1
    },
    {
        "name": "中山市",
        "level": "city",
        "adcode": 442000,
        "lng": 113.392517,
        "lat": 22.517024,
        "childrenNum": 23,
        "parent": 440000,
        "次数": 0,
        "排名": 1
    },
    {
        "name": "潮州市",
        "level": "city",
        "adcode": 445100,
        "lng": 116.621901,
        "lat": 23.657662,
        "childrenNum": 3,
        "parent": 440000,
        "次数": 0,
        "排名": 1
    },
    {
        "name": "揭阳市",
        "level": "city",
        "adcode": 445200,
        "lng": 116.372732,
        "lat": 23.550968,
        "childrenNum": 5,
        "parent": 440000,
        "次数": 0,
        "排名": 1
    },
    {
        "name": "云浮市",
        "level": "city",
        "adcode": 445300,
        "lng": 112.044524,
        "lat": 22.915163,
        "childrenNum": 5,
        "parent": 440000,
        "次数": 0,
        "排名": 1
    },
    {
        "name": "南宁市",
        "level": "city",
        "adcode": 450100,
        "lng": 108.366407,
        "lat": 22.8177,
        "childrenNum": 12,
        "parent": 450000,
        "次数": 0,
        "排名": 1
    },
    {
        "name": "柳州市",
        "level": "city",
        "adcode": 450200,
        "lng": 109.428071,
        "lat": 24.326442,
        "childrenNum": 10,
        "parent": 450000,
        "次数": 0,
        "排名": 1
    },
    {
        "name": "桂林市",
        "level": "city",
        "adcode": 450300,
        "lng": 110.179752,
        "lat": 25.235615,
        "childrenNum": 17,
        "parent": 450000,
        "次数": 0,
        "排名": 1
    },
    {
        "name": "梧州市",
        "level": "city",
        "adcode": 450400,
        "lng": 111.279022,
        "lat": 23.476733,
        "childrenNum": 7,
        "parent": 450000,
        "次数": 0,
        "排名": 1
    },
    {
        "name": "北海市",
        "level": "city",
        "adcode": 450500,
        "lng": 109.120248,
        "lat": 21.481305,
        "childrenNum": 4,
        "parent": 450000,
        "次数": 0,
        "排名": 1
    },
    {
        "name": "防城港市",
        "level": "city",
        "adcode": 450600,
        "lng": 108.35467,
        "lat": 21.686732,
        "childrenNum": 4,
        "parent": 450000,
        "次数": 0,
        "排名": 1
    },
    {
        "name": "钦州市",
        "level": "city",
        "adcode": 450700,
        "lng": 108.654355,
        "lat": 21.980894,
        "childrenNum": 4,
        "parent": 450000,
        "次数": 0,
        "排名": 1
    },
    {
        "name": "贵港市",
        "level": "city",
        "adcode": 450800,
        "lng": 109.598903,
        "lat": 23.11182,
        "childrenNum": 5,
        "parent": 450000,
        "次数": 0,
        "排名": 1
    },
    {
        "name": "玉林市",
        "level": "city",
        "adcode": 450900,
        "lng": 110.18097,
        "lat": 22.654001,
        "childrenNum": 7,
        "parent": 450000,
        "次数": 0,
        "排名": 1
    },
    {
        "name": "百色市",
        "level": "city",
        "adcode": 451000,
        "lng": 106.61869,
        "lat": 23.90307,
        "childrenNum": 12,
        "parent": 450000,
        "次数": 0,
        "排名": 1
    },
    {
        "name": "贺州市",
        "level": "city",
        "adcode": 451100,
        "lng": 111.567216,
        "lat": 24.404182,
        "childrenNum": 5,
        "parent": 450000,
        "次数": 0,
        "排名": 1
    },
    {
        "name": "河池市",
        "level": "city",
        "adcode": 451200,
        "lng": 108.085244,
        "lat": 24.692906,
        "childrenNum": 11,
        "parent": 450000,
        "次数": 0,
        "排名": 1
    },
    {
        "name": "来宾市",
        "level": "city",
        "adcode": 451300,
        "lng": 109.221243,
        "lat": 23.750105,
        "childrenNum": 6,
        "parent": 450000,
        "次数": 0,
        "排名": 1
    },
    {
        "name": "崇左市",
        "level": "city",
        "adcode": 451400,
        "lng": 107.364973,
        "lat": 22.377139,
        "childrenNum": 7,
        "parent": 450000,
        "次数": 0,
        "排名": 1
    },
    {
        "name": "海口市",
        "level": "city",
        "adcode": 460100,
        "lng": 110.198418,
        "lat": 20.045805,
        "childrenNum": 4,
        "parent": 460000,
        "次数": 0,
        "排名": 1
    },
    {
        "name": "三亚市",
        "level": "city",
        "adcode": 460200,
        "lng": 109.511709,
        "lat": 18.252865,
        "childrenNum": 4,
        "parent": 460000,
        "次数": 0,
        "排名": 1
    },
    {
        "name": "三沙市",
        "level": "city",
        "adcode": 460300,
        "lng": 112.338649,
        "lat": 16.831004,
        "childrenNum": 2,
        "parent": 460000,
        "次数": 0,
        "排名": 1
    },
    {
        "name": "儋州市",
        "level": "city",
        "adcode": 460400,
        "lng": 109.580812,
        "lat": 19.520948,
        "childrenNum": 23,
        "parent": 460000,
        "次数": 0,
        "排名": 1
    },
    {
        "name": "五指山市",
        "level": "city",
        "adcode": 469001,
        "lng": 109.516784,
        "lat": 18.774827,
        "childrenNum": 8,
        "parent": 460000,
        "次数": 0,
        "排名": 1
    },
    {
        "name": "琼海市",
        "level": "city",
        "adcode": 469002,
        "lng": 110.474524,
        "lat": 19.259112,
        "childrenNum": 16,
        "parent": 460000,
        "次数": 0,
        "排名": 1
    },
    {
        "name": "文昌市",
        "level": "city",
        "adcode": 469005,
        "lng": 110.797473,
        "lat": 19.544234,
        "childrenNum": 20,
        "parent": 460000,
        "次数": 0,
        "排名": 1
    },
    {
        "name": "万宁市",
        "level": "city",
        "adcode": 469006,
        "lng": 110.392605,
        "lat": 18.793697,
        "childrenNum": 17,
        "parent": 460000,
        "次数": 0,
        "排名": 1
    },
    {
        "name": "东方市",
        "level": "city",
        "adcode": 469007,
        "lng": 108.651829,
        "lat": 19.095187,
        "childrenNum": 12,
        "parent": 460000,
        "次数": 0,
        "排名": 1
    },
    {
        "name": "定安县",
        "level": "city",
        "adcode": 469021,
        "lng": 110.358001,
        "lat": 19.681215,
        "childrenNum": 13,
        "parent": 460000,
        "次数": 0,
        "排名": 1
    },
    {
        "name": "屯昌县",
        "level": "city",
        "adcode": 469022,
        "lng": 110.101667,
        "lat": 19.351662,
        "childrenNum": 10,
        "parent": 460000,
        "次数": 0,
        "排名": 1
    },
    {
        "name": "澄迈县",
        "level": "city",
        "adcode": 469023,
        "lng": 110.007497,
        "lat": 19.738885,
        "childrenNum": 17,
        "parent": 460000,
        "次数": 0,
        "排名": 1
    },
    {
        "name": "临高县",
        "level": "city",
        "adcode": 469024,
        "lng": 109.690508,
        "lat": 19.912025,
        "childrenNum": 12,
        "parent": 460000,
        "次数": 0,
        "排名": 1
    },
    {
        "name": "白沙黎族自治县",
        "level": "city",
        "adcode": 469025,
        "lng": 109.4429,
        "lat": 19.221641,
        "childrenNum": 14,
        "parent": 460000,
        "次数": 0,
        "排名": 1
    },
    {
        "name": "昌江黎族自治县",
        "level": "city",
        "adcode": 469026,
        "lng": 109.055783,
        "lat": 19.298139,
        "childrenNum": 11,
        "parent": 460000,
        "次数": 0,
        "排名": 1
    },
    {
        "name": "乐东黎族自治县",
        "level": "city",
        "adcode": 469027,
        "lng": 109.173384,
        "lat": 18.750063,
        "childrenNum": 16,
        "parent": 460000,
        "次数": 0,
        "排名": 1
    },
    {
        "name": "陵水黎族自治县",
        "level": "city",
        "adcode": 469028,
        "lng": 110.037553,
        "lat": 18.506045,
        "childrenNum": 14,
        "parent": 460000,
        "次数": 0,
        "排名": 1
    },
    {
        "name": "保亭黎族苗族自治县",
        "level": "city",
        "adcode": 469029,
        "lng": 109.700279,
        "lat": 18.640339,
        "childrenNum": 13,
        "parent": 460000,
        "次数": 0,
        "排名": 1
    },
    {
        "name": "琼中黎族苗族自治县",
        "level": "city",
        "adcode": 469030,
        "lng": 109.838423,
        "lat": 19.03327,
        "childrenNum": 15,
        "parent": 460000,
        "次数": 0,
        "排名": 1
    },
    {
        "level": "city",
        "adcode": 500100,
        "lng": 106.550483,
        "lat": 29.563707,
        "childrenNum": 38,
        "parent": 500000,
        "name": "重庆市",
        "次数": 0,
        "排名": 1
    },
    {
        "name": "成都市",
        "level": "city",
        "adcode": 510100,
        "lng": 104.066301,
        "lat": 30.572961,
        "childrenNum": 20,
        "parent": 510000,
        "次数": 0,
        "排名": 1
    },
    {
        "name": "自贡市",
        "level": "city",
        "adcode": 510300,
        "lng": 104.779307,
        "lat": 29.33924,
        "childrenNum": 6,
        "parent": 510000,
        "次数": 0,
        "排名": 1
    },
    {
        "name": "攀枝花市",
        "level": "city",
        "adcode": 510400,
        "lng": 101.71846,
        "lat": 26.582417,
        "childrenNum": 5,
        "parent": 510000,
        "次数": 0,
        "排名": 1
    },
    {
        "name": "泸州市",
        "level": "city",
        "adcode": 510500,
        "lng": 105.441866,
        "lat": 28.87098,
        "childrenNum": 7,
        "parent": 510000,
        "次数": 0,
        "排名": 1
    },
    {
        "name": "德阳市",
        "level": "city",
        "adcode": 510600,
        "lng": 104.397795,
        "lat": 31.127449,
        "childrenNum": 6,
        "parent": 510000,
        "次数": 0,
        "排名": 1
    },
    {
        "name": "绵阳市",
        "level": "city",
        "adcode": 510700,
        "lng": 104.679127,
        "lat": 31.467673,
        "childrenNum": 9,
        "parent": 510000,
        "次数": 0,
        "排名": 1
    },
    {
        "name": "广元市",
        "level": "city",
        "adcode": 510800,
        "lng": 105.844004,
        "lat": 32.435774,
        "childrenNum": 7,
        "parent": 510000,
        "次数": 0,
        "排名": 1
    },
    {
        "name": "遂宁市",
        "level": "city",
        "adcode": 510900,
        "lng": 105.592602,
        "lat": 30.53268,
        "childrenNum": 5,
        "parent": 510000,
        "次数": 0,
        "排名": 1
    },
    {
        "name": "内江市",
        "level": "city",
        "adcode": 511000,
        "lng": 105.057992,
        "lat": 29.58021,
        "childrenNum": 5,
        "parent": 510000,
        "次数": 0,
        "排名": 1
    },
    {
        "name": "乐山市",
        "level": "city",
        "adcode": 511100,
        "lng": 103.766085,
        "lat": 29.552275,
        "childrenNum": 11,
        "parent": 510000,
        "次数": 0,
        "排名": 1
    },
    {
        "name": "南充市",
        "level": "city",
        "adcode": 511300,
        "lng": 106.110565,
        "lat": 30.837235,
        "childrenNum": 9,
        "parent": 510000,
        "次数": 0,
        "排名": 1
    },
    {
        "name": "眉山市",
        "level": "city",
        "adcode": 511400,
        "lng": 103.848417,
        "lat": 30.077113,
        "childrenNum": 6,
        "parent": 510000,
        "次数": 0,
        "排名": 1
    },
    {
        "name": "宜宾市",
        "level": "city",
        "adcode": 511500,
        "lng": 104.642826,
        "lat": 28.752354,
        "childrenNum": 10,
        "parent": 510000,
        "次数": 0,
        "排名": 1
    },
    {
        "name": "广安市",
        "level": "city",
        "adcode": 511600,
        "lng": 106.632647,
        "lat": 30.456354,
        "childrenNum": 6,
        "parent": 510000,
        "次数": 0,
        "排名": 1
    },
    {
        "name": "达州市",
        "level": "city",
        "adcode": 511700,
        "lng": 107.46778,
        "lat": 31.209278,
        "childrenNum": 7,
        "parent": 510000,
        "次数": 0,
        "排名": 1
    },
    {
        "name": "雅安市",
        "level": "city",
        "adcode": 511800,
        "lng": 103.041538,
        "lat": 30.009998,
        "childrenNum": 8,
        "parent": 510000,
        "次数": 0,
        "排名": 1
    },
    {
        "name": "巴中市",
        "level": "city",
        "adcode": 511900,
        "lng": 106.747548,
        "lat": 31.867853,
        "childrenNum": 5,
        "parent": 510000,
        "次数": 0,
        "排名": 1
    },
    {
        "name": "资阳市",
        "level": "city",
        "adcode": 512000,
        "lng": 104.627265,
        "lat": 30.129236,
        "childrenNum": 3,
        "parent": 510000,
        "次数": 0,
        "排名": 1
    },
    {
        "name": "阿坝藏族羌族自治州",
        "level": "city",
        "adcode": 513200,
        "lng": 102.224504,
        "lat": 31.899427,
        "childrenNum": 13,
        "parent": 510000,
        "次数": 0,
        "排名": 1
    },
    {
        "name": "甘孜藏族自治州",
        "level": "city",
        "adcode": 513300,
        "lng": 101.96231,
        "lat": 30.04952,
        "childrenNum": 18,
        "parent": 510000,
        "次数": 0,
        "排名": 1
    },
    {
        "name": "凉山彝族自治州",
        "level": "city",
        "adcode": 513400,
        "lng": 102.267713,
        "lat": 27.881396,
        "childrenNum": 17,
        "parent": 510000,
        "次数": 0,
        "排名": 1
    },
    {
        "name": "贵阳市",
        "level": "city",
        "adcode": 520100,
        "lng": 106.628201,
        "lat": 26.646694,
        "childrenNum": 10,
        "parent": 520000,
        "次数": 0,
        "排名": 1
    },
    {
        "name": "六盘水市",
        "level": "city",
        "adcode": 520200,
        "lng": 104.830357,
        "lat": 26.592538,
        "childrenNum": 4,
        "parent": 520000,
        "次数": 0,
        "排名": 1
    },
    {
        "name": "遵义市",
        "level": "city",
        "adcode": 520300,
        "lng": 107.031922,
        "lat": 27.721931,
        "childrenNum": 14,
        "parent": 520000,
        "次数": 0,
        "排名": 1
    },
    {
        "name": "安顺市",
        "level": "city",
        "adcode": 520400,
        "lng": 105.9476,
        "lat": 26.253103,
        "childrenNum": 6,
        "parent": 520000,
        "次数": 0,
        "排名": 1
    },
    {
        "name": "毕节市",
        "level": "city",
        "adcode": 520500,
        "lng": 105.291544,
        "lat": 27.283615,
        "childrenNum": 8,
        "parent": 520000,
        "次数": 0,
        "排名": 1
    },
    {
        "name": "铜仁市",
        "level": "city",
        "adcode": 520600,
        "lng": 109.189528,
        "lat": 27.731555,
        "childrenNum": 10,
        "parent": 520000,
        "次数": 0,
        "排名": 1
    },
    {
        "name": "黔西南布依族苗族自治州",
        "level": "city",
        "adcode": 522300,
        "lng": 104.906419,
        "lat": 25.087733,
        "childrenNum": 8,
        "parent": 520000,
        "次数": 0,
        "排名": 1
    },
    {
        "name": "黔东南苗族侗族自治州",
        "level": "city",
        "adcode": 522600,
        "lng": 107.982838,
        "lat": 26.583759,
        "childrenNum": 16,
        "parent": 520000,
        "次数": 0,
        "排名": 1
    },
    {
        "name": "黔南布依族苗族自治州",
        "level": "city",
        "adcode": 522700,
        "lng": 107.522303,
        "lat": 26.253136,
        "childrenNum": 12,
        "parent": 520000,
        "次数": 0,
        "排名": 1
    },
    {
        "name": "昆明市",
        "level": "city",
        "adcode": 530100,
        "lng": 102.833669,
        "lat": 24.88149,
        "childrenNum": 14,
        "parent": 530000,
        "次数": 0,
        "排名": 1
    },
    {
        "name": "曲靖市",
        "level": "city",
        "adcode": 530300,
        "lng": 103.796288,
        "lat": 25.490866,
        "childrenNum": 9,
        "parent": 530000,
        "次数": 0,
        "排名": 1
    },
    {
        "name": "玉溪市",
        "level": "city",
        "adcode": 530400,
        "lng": 102.526673,
        "lat": 24.346786,
        "childrenNum": 9,
        "parent": 530000,
        "次数": 0,
        "排名": 1
    },
    {
        "name": "保山市",
        "level": "city",
        "adcode": 530500,
        "lng": 99.161489,
        "lat": 25.112018,
        "childrenNum": 5,
        "parent": 530000,
        "次数": 0,
        "排名": 1
    },
    {
        "name": "昭通市",
        "level": "city",
        "adcode": 530600,
        "lng": 103.717078,
        "lat": 27.338185,
        "childrenNum": 11,
        "parent": 530000,
        "次数": 0,
        "排名": 1
    },
    {
        "name": "丽江市",
        "level": "city",
        "adcode": 530700,
        "lng": 100.225936,
        "lat": 26.855165,
        "childrenNum": 5,
        "parent": 530000,
        "次数": 0,
        "排名": 1
    },
    {
        "name": "普洱市",
        "level": "city",
        "adcode": 530800,
        "lng": 100.966011,
        "lat": 22.825229,
        "childrenNum": 10,
        "parent": 530000,
        "次数": 0,
        "排名": 1
    },
    {
        "name": "临沧市",
        "level": "city",
        "adcode": 530900,
        "lng": 100.088837,
        "lat": 23.884175,
        "childrenNum": 8,
        "parent": 530000,
        "次数": 0,
        "排名": 1
    },
    {
        "name": "楚雄彝族自治州",
        "level": "city",
        "adcode": 532300,
        "lng": 101.528304,
        "lat": 25.045678,
        "childrenNum": 10,
        "parent": 530000,
        "次数": 0,
        "排名": 1
    },
    {
        "name": "红河哈尼族彝族自治州",
        "level": "city",
        "adcode": 532500,
        "lng": 103.374873,
        "lat": 23.363129,
        "childrenNum": 13,
        "parent": 530000,
        "次数": 0,
        "排名": 1
    },
    {
        "name": "文山壮族苗族自治州",
        "level": "city",
        "adcode": 532600,
        "lng": 104.21567,
        "lat": 23.400983,
        "childrenNum": 8,
        "parent": 530000,
        "次数": 0,
        "排名": 1
    },
    {
        "name": "西双版纳傣族自治州",
        "level": "city",
        "adcode": 532800,
        "lng": 100.797002,
        "lat": 22.009037,
        "childrenNum": 3,
        "parent": 530000,
        "次数": 0,
        "排名": 1
    },
    {
        "name": "大理白族自治州",
        "level": "city",
        "adcode": 532900,
        "lng": 100.267608,
        "lat": 25.606548,
        "childrenNum": 12,
        "parent": 530000,
        "次数": 0,
        "排名": 1
    },
    {
        "name": "德宏傣族景颇族自治州",
        "level": "city",
        "adcode": 533100,
        "lng": 98.585621,
        "lat": 24.433146,
        "childrenNum": 5,
        "parent": 530000,
        "次数": 0,
        "排名": 1
    },
    {
        "name": "怒江傈僳族自治州",
        "level": "city",
        "adcode": 533300,
        "lng": 98.8566,
        "lat": 25.817555,
        "childrenNum": 4,
        "parent": 530000,
        "次数": 0,
        "排名": 1
    },
    {
        "name": "迪庆藏族自治州",
        "level": "city",
        "adcode": 533400,
        "lng": 99.70211,
        "lat": 27.819149,
        "childrenNum": 3,
        "parent": 530000,
        "次数": 0,
        "排名": 1
    },
    {
        "name": "拉萨市",
        "level": "city",
        "adcode": 540100,
        "lng": 91.171924,
        "lat": 29.653491,
        "childrenNum": 8,
        "parent": 540000,
        "次数": 0,
        "排名": 1
    },
    {
        "name": "日喀则市",
        "level": "city",
        "adcode": 540200,
        "lng": 88.880423,
        "lat": 29.266838,
        "childrenNum": 18,
        "parent": 540000,
        "次数": 0,
        "排名": 1
    },
    {
        "name": "昌都市",
        "level": "city",
        "adcode": 540300,
        "lng": 97.170425,
        "lat": 31.142879,
        "childrenNum": 11,
        "parent": 540000,
        "次数": 0,
        "排名": 1
    },
    {
        "name": "林芝市",
        "level": "city",
        "adcode": 540400,
        "lng": 94.361436,
        "lat": 29.64875,
        "childrenNum": 7,
        "parent": 540000,
        "次数": 0,
        "排名": 1
    },
    {
        "name": "山南市",
        "level": "city",
        "adcode": 540500,
        "lng": 91.771426,
        "lat": 29.237722,
        "childrenNum": 12,
        "parent": 540000,
        "次数": 0,
        "排名": 1
    },
    {
        "name": "那曲市",
        "level": "city",
        "adcode": 540600,
        "lng": 92.05151,
        "lat": 31.477905,
        "childrenNum": 11,
        "parent": 540000,
        "次数": 0,
        "排名": 1
    },
    {
        "name": "阿里地区",
        "level": "city",
        "adcode": 542500,
        "lng": 80.105786,
        "lat": 32.500987,
        "childrenNum": 7,
        "parent": 540000,
        "次数": 0,
        "排名": 1
    },
    {
        "name": "西安市",
        "level": "city",
        "adcode": 610100,
        "lng": 108.939645,
        "lat": 34.343207,
        "childrenNum": 13,
        "parent": 610000,
        "次数": 0,
        "排名": 1
    },
    {
        "name": "铜川市",
        "level": "city",
        "adcode": 610200,
        "lng": 108.945116,
        "lat": 34.897133,
        "childrenNum": 4,
        "parent": 610000,
        "次数": 0,
        "排名": 1
    },
    {
        "name": "宝鸡市",
        "level": "city",
        "adcode": 610300,
        "lng": 107.237682,
        "lat": 34.362862,
        "childrenNum": 12,
        "parent": 610000,
        "次数": 0,
        "排名": 1
    },
    {
        "name": "咸阳市",
        "level": "city",
        "adcode": 610400,
        "lng": 108.708837,
        "lat": 34.329896,
        "childrenNum": 14,
        "parent": 610000,
        "次数": 0,
        "排名": 1
    },
    {
        "name": "渭南市",
        "level": "city",
        "adcode": 610500,
        "lng": 109.470962,
        "lat": 34.520632,
        "childrenNum": 11,
        "parent": 610000,
        "次数": 0,
        "排名": 1
    },
    {
        "name": "延安市",
        "level": "city",
        "adcode": 610600,
        "lng": 109.49468,
        "lat": 36.650109,
        "childrenNum": 13,
        "parent": 610000,
        "次数": 0,
        "排名": 1
    },
    {
        "name": "汉中市",
        "level": "city",
        "adcode": 610700,
        "lng": 107.02319,
        "lat": 33.066373,
        "childrenNum": 11,
        "parent": 610000,
        "次数": 0,
        "排名": 1
    },
    {
        "name": "榆林市",
        "level": "city",
        "adcode": 610800,
        "lng": 109.734104,
        "lat": 38.28576,
        "childrenNum": 12,
        "parent": 610000,
        "次数": 0,
        "排名": 1
    },
    {
        "name": "安康市",
        "level": "city",
        "adcode": 610900,
        "lng": 109.029017,
        "lat": 32.685435,
        "childrenNum": 10,
        "parent": 610000,
        "次数": 0,
        "排名": 1
    },
    {
        "name": "商洛市",
        "level": "city",
        "adcode": 611000,
        "lng": 109.918646,
        "lat": 33.873358,
        "childrenNum": 7,
        "parent": 610000,
        "次数": 0,
        "排名": 1
    },
    {
        "name": "兰州市",
        "level": "city",
        "adcode": 620100,
        "lng": 103.834228,
        "lat": 36.060798,
        "childrenNum": 8,
        "parent": 620000,
        "次数": 0,
        "排名": 1
    },
    {
        "name": "嘉峪关市",
        "level": "city",
        "adcode": 620200,
        "lng": 98.2882,
        "lat": 39.77325,
        "childrenNum": 5,
        "parent": 620000,
        "次数": 0,
        "排名": 1
    },
    {
        "name": "金昌市",
        "level": "city",
        "adcode": 620300,
        "lng": 102.187972,
        "lat": 38.521468,
        "childrenNum": 2,
        "parent": 620000,
        "次数": 0,
        "排名": 1
    },
    {
        "name": "白银市",
        "level": "city",
        "adcode": 620400,
        "lng": 104.138872,
        "lat": 36.545123,
        "childrenNum": 5,
        "parent": 620000,
        "次数": 0,
        "排名": 1
    },
    {
        "name": "天水市",
        "level": "city",
        "adcode": 620500,
        "lng": 105.724828,
        "lat": 34.581514,
        "childrenNum": 7,
        "parent": 620000,
        "次数": 0,
        "排名": 1
    },
    {
        "name": "武威市",
        "level": "city",
        "adcode": 620600,
        "lng": 102.637821,
        "lat": 37.92898,
        "childrenNum": 4,
        "parent": 620000,
        "次数": 0,
        "排名": 1
    },
    {
        "name": "张掖市",
        "level": "city",
        "adcode": 620700,
        "lng": 100.449858,
        "lat": 38.924766,
        "childrenNum": 6,
        "parent": 620000,
        "次数": 0,
        "排名": 1
    },
    {
        "name": "平凉市",
        "level": "city",
        "adcode": 620800,
        "lng": 106.664913,
        "lat": 35.542417,
        "childrenNum": 7,
        "parent": 620000,
        "次数": 0,
        "排名": 1
    },
    {
        "name": "酒泉市",
        "level": "city",
        "adcode": 620900,
        "lng": 98.49432,
        "lat": 39.733416,
        "childrenNum": 7,
        "parent": 620000,
        "次数": 0,
        "排名": 1
    },
    {
        "name": "庆阳市",
        "level": "city",
        "adcode": 621000,
        "lng": 107.643433,
        "lat": 35.709459,
        "childrenNum": 8,
        "parent": 620000,
        "次数": 0,
        "排名": 1
    },
    {
        "name": "定西市",
        "level": "city",
        "adcode": 621100,
        "lng": 104.592342,
        "lat": 35.607947,
        "childrenNum": 7,
        "parent": 620000,
        "次数": 0,
        "排名": 1
    },
    {
        "name": "陇南市",
        "level": "city",
        "adcode": 621200,
        "lng": 104.960296,
        "lat": 33.370174,
        "childrenNum": 9,
        "parent": 620000,
        "次数": 0,
        "排名": 1
    },
    {
        "name": "临夏回族自治州",
        "level": "city",
        "adcode": 622900,
        "lng": 103.210386,
        "lat": 35.601792,
        "childrenNum": 8,
        "parent": 620000,
        "次数": 0,
        "排名": 1
    },
    {
        "name": "甘南藏族自治州",
        "level": "city",
        "adcode": 623000,
        "lng": 102.911736,
        "lat": 34.983266,
        "childrenNum": 8,
        "parent": 620000,
        "次数": 0,
        "排名": 1
    },
    {
        "name": "西宁市",
        "level": "city",
        "adcode": 630100,
        "lng": 101.777795,
        "lat": 36.616621,
        "childrenNum": 7,
        "parent": 630000,
        "次数": 0,
        "排名": 1
    },
    {
        "name": "海东市",
        "level": "city",
        "adcode": 630200,
        "lng": 102.41064,
        "lat": 36.473448,
        "childrenNum": 6,
        "parent": 630000,
        "次数": 0,
        "排名": 1
    },
    {
        "name": "海北藏族自治州",
        "level": "city",
        "adcode": 632200,
        "lng": 100.900944,
        "lat": 36.954612,
        "childrenNum": 4,
        "parent": 630000,
        "次数": 0,
        "排名": 1
    },
    {
        "name": "黄南藏族自治州",
        "level": "city",
        "adcode": 632300,
        "lng": 102.015397,
        "lat": 35.519317,
        "childrenNum": 4,
        "parent": 630000,
        "次数": 0,
        "排名": 1
    },
    {
        "name": "海南藏族自治州",
        "level": "city",
        "adcode": 632500,
        "lng": 100.622647,
        "lat": 36.296399,
        "childrenNum": 5,
        "parent": 630000,
        "次数": 0,
        "排名": 1
    },
    {
        "name": "果洛藏族自治州",
        "level": "city",
        "adcode": 632600,
        "lng": 100.245161,
        "lat": 34.472179,
        "childrenNum": 6,
        "parent": 630000,
        "次数": 0,
        "排名": 1
    },
    {
        "name": "玉树藏族自治州",
        "level": "city",
        "adcode": 632700,
        "lng": 97.006292,
        "lat": 33.006308,
        "childrenNum": 6,
        "parent": 630000,
        "次数": 0,
        "排名": 1
    },
    {
        "name": "海西蒙古族藏族自治州",
        "level": "city",
        "adcode": 632800,
        "lng": 97.33197,
        "lat": 37.348114,
        "childrenNum": 7,
        "parent": 630000,
        "次数": 0,
        "排名": 1
    },
    {
        "name": "银川市",
        "level": "city",
        "adcode": 640100,
        "lng": 106.230977,
        "lat": 38.487783,
        "childrenNum": 6,
        "parent": 640000,
        "次数": 0,
        "排名": 1
    },
    {
        "name": "石嘴山市",
        "level": "city",
        "adcode": 640200,
        "lng": 106.382792,
        "lat": 38.984632,
        "childrenNum": 3,
        "parent": 640000,
        "次数": 0,
        "排名": 1
    },
    {
        "name": "吴忠市",
        "level": "city",
        "adcode": 640300,
        "lng": 106.198613,
        "lat": 37.997755,
        "childrenNum": 5,
        "parent": 640000,
        "次数": 0,
        "排名": 1
    },
    {
        "name": "固原市",
        "level": "city",
        "adcode": 640400,
        "lng": 106.24267,
        "lat": 36.01628,
        "childrenNum": 5,
        "parent": 640000,
        "次数": 0,
        "排名": 1
    },
    {
        "name": "中卫市",
        "level": "city",
        "adcode": 640500,
        "lng": 105.19677,
        "lat": 37.500185,
        "childrenNum": 3,
        "parent": 640000,
        "次数": 0,
        "排名": 1
    },
    {
        "name": "乌鲁木齐市",
        "level": "city",
        "adcode": 650100,
        "lng": 87.616824,
        "lat": 43.825377,
        "childrenNum": 8,
        "parent": 650000,
        "次数": 0,
        "排名": 1
    },
    {
        "name": "克拉玛依市",
        "level": "city",
        "adcode": 650200,
        "lng": 84.889239,
        "lat": 45.577712,
        "childrenNum": 4,
        "parent": 650000,
        "次数": 0,
        "排名": 1
    },
    {
        "name": "吐鲁番市",
        "level": "city",
        "adcode": 650400,
        "lng": 89.190374,
        "lat": 42.950736,
        "childrenNum": 3,
        "parent": 650000,
        "次数": 0,
        "排名": 1
    },
    {
        "name": "哈密市",
        "level": "city",
        "adcode": 650500,
        "lng": 93.515053,
        "lat": 42.819346,
        "childrenNum": 3,
        "parent": 650000,
        "次数": 0,
        "排名": 1
    },
    {
        "name": "昌吉回族自治州",
        "level": "city",
        "adcode": 652300,
        "lng": 87.308995,
        "lat": 44.011044,
        "childrenNum": 7,
        "parent": 650000,
        "次数": 0,
        "排名": 1
    },
    {
        "name": "博尔塔拉蒙古自治州",
        "level": "city",
        "adcode": 652700,
        "lng": 82.066363,
        "lat": 44.906039,
        "childrenNum": 4,
        "parent": 650000,
        "次数": 0,
        "排名": 1
    },
    {
        "name": "巴音郭楞蒙古自治州",
        "level": "city",
        "adcode": 652800,
        "lng": 86.145298,
        "lat": 41.764115,
        "childrenNum": 9,
        "parent": 650000,
        "次数": 0,
        "排名": 1
    },
    {
        "name": "阿克苏地区",
        "level": "city",
        "adcode": 652900,
        "lng": 80.265068,
        "lat": 41.170712,
        "childrenNum": 9,
        "parent": 650000,
        "次数": 0,
        "排名": 1
    },
    {
        "name": "克孜勒苏柯尔克孜自治州",
        "level": "city",
        "adcode": 653000,
        "lng": 76.167327,
        "lat": 39.714734,
        "childrenNum": 4,
        "parent": 650000,
        "次数": 0,
        "排名": 1
    },
    {
        "name": "喀什地区",
        "level": "city",
        "adcode": 653100,
        "lng": 75.989746,
        "lat": 39.470492,
        "childrenNum": 12,
        "parent": 650000,
        "次数": 0,
        "排名": 1
    },
    {
        "name": "和田地区",
        "level": "city",
        "adcode": 653200,
        "lng": 79.921646,
        "lat": 37.114406,
        "childrenNum": 8,
        "parent": 650000,
        "次数": 0,
        "排名": 1
    },
    {
        "name": "伊犁哈萨克自治州",
        "level": "city",
        "adcode": 654000,
        "lng": 81.323691,
        "lat": 43.917106,
        "childrenNum": 11,
        "parent": 650000,
        "次数": 0,
        "排名": 1
    },
    {
        "name": "塔城地区",
        "level": "city",
        "adcode": 654200,
        "lng": 82.980316,
        "lat": 46.745364,
        "childrenNum": 7,
        "parent": 650000,
        "次数": 0,
        "排名": 1
    },
    {
        "name": "阿勒泰地区",
        "level": "city",
        "adcode": 654300,
        "lng": 88.141253,
        "lat": 47.844924,
        "childrenNum": 7,
        "parent": 650000,
        "次数": 0,
        "排名": 1
    },
    {
        "name": "石河子市",
        "level": "city",
        "adcode": 659001,
        "lng": 86.080397,
        "lat": 44.305368,
        "childrenNum": 8,
        "parent": 650000,
        "次数": 0,
        "排名": 1
    },
    {
        "name": "阿拉尔市",
        "level": "city",
        "adcode": 659002,
        "lng": 81.280532,
        "lat": 40.547205,
        "childrenNum": 19,
        "parent": 650000,
        "次数": 0,
        "排名": 1
    },
    {
        "name": "图木舒克市",
        "level": "city",
        "adcode": 659003,
        "lng": 79.074762,
        "lat": 39.868366,
        "childrenNum": 10,
        "parent": 650000,
        "次数": 0,
        "排名": 1
    },
    {
        "name": "五家渠市",
        "level": "city",
        "adcode": 659004,
        "lng": 87.542852,
        "lat": 44.166489,
        "childrenNum": 6,
        "parent": 650000,
        "次数": 0,
        "排名": 1
    },
    {
        "name": "北屯市",
        "level": "city",
        "adcode": 659005,
        "lng": 87.834419,
        "lat": 47.326733,
        "childrenNum": 4,
        "parent": 650000,
        "次数": 0,
        "排名": 1
    },
    {
        "name": "铁门关市",
        "level": "city",
        "adcode": 659006,
        "lng": 85.670291,
        "lat": 41.862997,
        "childrenNum": 2,
        "parent": 650000,
        "次数": 0,
        "排名": 1
    },
    {
        "name": "双河市",
        "level": "city",
        "adcode": 659007,
        "lng": 82.367887,
        "lat": 44.845935,
        "childrenNum": 5,
        "parent": 650000,
        "次数": 0,
        "排名": 1
    },
    {
        "name": "可克达拉市",
        "level": "city",
        "adcode": 659008,
        "lng": 80.994153,
        "lat": 43.940381,
        "childrenNum": 6,
        "parent": 650000,
        "次数": 0,
        "排名": 1
    },
    {
        "name": "昆玉市",
        "level": "city",
        "adcode": 659009,
        "lng": 79.270193,
        "lat": 37.215372,
        "childrenNum": 11,
        "parent": 650000,
        "次数": 0,
        "排名": 1
    },
    {
        "name": "胡杨河市",
        "level": "city",
        "adcode": 659010,
        "lng": 84.827592,
        "lat": 44.692894,
        "childrenNum": 4,
        "parent": 650000,
        "次数": 0,
        "排名": 1
    },
    {
        "name": "台湾省",
        "level": "city",
        "adcode": 710000,
        "lng": 121.509062,
        "lat": 25.044332,
        "childrenNum": 0,
        "parent": 710000,
        "次数": 0,
        "排名": 1
    },
    {
        "name": "香港特别行政区",
        "level": "city",
        "adcode": 810000,
        "lng": 114.173355,
        "lat": 22.320048,
        "childrenNum": 18,
        "parent": 810000,
        "次数": 0,
        "排名": 1
    },
    {
        "name": "澳门特别行政区",
        "level": "city",
        "adcode": 820000,
        "lng": 113.54909,
        "lat": 22.198951,
        "childrenNum": 8,
        "parent": 820000,
        "次数": 0,
        "排名": 1
    }
]